{"type":"FeatureCollection","crs":{"type":"name","properties":{"name":"EPSG:4326"}},"features":[{"type":"Feature","id":0,"geometry":{"type":"Point","coordinates":[101.29165109900003,30.402790022000033,4302,null]},"properties":{"FID":0,"Id":0,"pName":"忆比措"}},{"type":"Feature","id":1,"geometry":{"type":"Point","coordinates":[101.62518906300005,30.426127290000068,4422,null]},"properties":{"FID":1,"Id":0,"pName":"亚拉友措"}},{"type":"Feature","id":2,"geometry":{"type":"Point","coordinates":[101.23787538400006,31.072020111000029,4320,null]},"properties":{"FID":2,"Id":0,"pName":"云祝措"}},{"type":"Feature","id":3,"geometry":{"type":"Point","coordinates":[100.71531761400007,32.175569849000055,4458,null]},"properties":{"FID":3,"Id":0,"pName":"五色海"}},{"type":"Feature","id":4,"geometry":{"type":"Point","coordinates":[100.29448568100008,29.132400680000046,4464,null]},"properties":{"FID":4,"Id":0,"pName":"黑海"}},{"type":"Feature","id":5,"geometry":{"type":"Point","coordinates":[100.09084962700007,29.369198511000036,4354,null]},"properties":{"FID":5,"Id":0,"pName":"须俄叠湖2#"}},{"type":"Feature","id":6,"geometry":{"type":"Point","coordinates":[100.11219602400007,29.346103569000036,4338,null]},"properties":{"FID":6,"Id":0,"pName":"须俄叠湖1#"}},{"type":"Feature","id":7,"geometry":{"type":"Point","coordinates":[100.05280730800007,29.416311775000054,4409,null]},"properties":{"FID":7,"Id":0,"pName":"辛开措附属湖"}},{"type":"Feature","id":8,"geometry":{"type":"Point","coordinates":[100.05573647600005,29.418905723000023,4410,null]},"properties":{"FID":8,"Id":0,"pName":"辛开措"}},{"type":"Feature","id":9,"geometry":{"type":"Point","coordinates":[100.30708077600008,28.692503406000071,4550,null]},"properties":{"FID":9,"Id":0,"pName":"神鱼湖"}},{"type":"Feature","id":10,"geometry":{"type":"Point","coordinates":[100.34798855100007,28.37502240300006,4450,null]},"properties":{"FID":10,"Id":0,"pName":"牛奶海"}},{"type":"Feature","id":11,"geometry":{"type":"Point","coordinates":[100.09498402000008,29.443953793000048,4432,null]},"properties":{"FID":11,"Id":0,"pName":"热达河木错"}},{"type":"Feature","id":12,"geometry":{"type":"Point","coordinates":[100.10851386900003,29.454147728000066,4453,null]},"properties":{"FID":12,"Id":0,"pName":"热达光木错"}},{"type":"Feature","id":13,"geometry":{"type":"Point","coordinates":[100.10158563000005,29.434574841000028,4471,null]},"properties":{"FID":13,"Id":0,"pName":"浪错"}},{"type":"Feature","id":14,"geometry":{"type":"Point","coordinates":[100.28102012600004,28.896205379000037,4472,null]},"properties":{"FID":14,"Id":0,"pName":"波瓦湖"}},{"type":"Feature","id":15,"geometry":{"type":"Point","coordinates":[100.16999932600004,29.435347377000028,4584,null]},"properties":{"FID":15,"Id":0,"pName":"无名湖4#"}},{"type":"Feature","id":16,"geometry":{"type":"Point","coordinates":[100.14727991400008,29.432325133000063,4478,null]},"properties":{"FID":16,"Id":0,"pName":"无名湖3#"}},{"type":"Feature","id":17,"geometry":{"type":"Point","coordinates":[100.14492735200008,29.434259692000069,4475,null]},"properties":{"FID":17,"Id":0,"pName":"无名湖2#"}},{"type":"Feature","id":18,"geometry":{"type":"Point","coordinates":[100.15064491500004,29.444076121000023,4504,null]},"properties":{"FID":18,"Id":0,"pName":"无名湖1#"}},{"type":"Feature","id":19,"geometry":{"type":"Point","coordinates":[100.11209580300005,29.258865055000058,4449,null]},"properties":{"FID":19,"Id":0,"pName":"扎朗措"}},{"type":"Feature","id":20,"geometry":{"type":"Point","coordinates":[100.11696761200005,29.229663964000054,4548,null]},"properties":{"FID":20,"Id":0,"pName":"峡如措"}},{"type":"Feature","id":21,"geometry":{"type":"Point","coordinates":[100.13798230200007,29.38421997100005,4432,null]},"properties":{"FID":21,"Id":0,"pName":"夏如措"}},{"type":"Feature","id":22,"geometry":{"type":"Point","coordinates":[100.12906758200006,29.457673475000036,4467,null]},"properties":{"FID":22,"Id":0,"pName":"吧松措"}},{"type":"Feature","id":23,"geometry":{"type":"Point","coordinates":[100.35202172000004,28.426178021000055,4082,null]},"properties":{"FID":23,"Id":0,"pName":"卓玛拉措"}},{"type":"Feature","id":24,"geometry":{"type":"Point","coordinates":[100.05294857800004,29.374816088000046,4371,null]},"properties":{"FID":24,"Id":0,"pName":"兴伊措附属3#湖"}},{"type":"Feature","id":25,"geometry":{"type":"Point","coordinates":[100.08163699700003,29.416993375000061,4409,null]},"properties":{"FID":25,"Id":0,"pName":"兴伊措附属2#湖"}},{"type":"Feature","id":26,"geometry":{"type":"Point","coordinates":[100.10595507200009,29.392384341000025,4412,null]},"properties":{"FID":26,"Id":0,"pName":"兴伊措附属1#湖"}},{"type":"Feature","id":27,"geometry":{"type":"Point","coordinates":[100.18913321700006,29.437079982000057,4608,null]},"properties":{"FID":27,"Id":0,"pName":"假山人工湖"}},{"type":"Feature","id":28,"geometry":{"type":"Point","coordinates":[100.05699668700004,29.400119929000027,4412,null]},"properties":{"FID":28,"Id":0,"pName":"从前措"}},{"type":"Feature","id":29,"geometry":{"type":"Point","coordinates":[100.35331455300008,28.379781272000059,4488,null]},"properties":{"FID":29,"Id":0,"pName":"五色海"}},{"type":"Feature","id":30,"geometry":{"type":"Point","coordinates":[97.877519889000041,32.775341535000052,4584,null]},"properties":{"FID":30,"Id":0,"pName":"阿东措"}},{"type":"Feature","id":31,"geometry":{"type":"Point","coordinates":[98.127867692000052,32.466106380000042,4782,null]},"properties":{"FID":31,"Id":0,"pName":"格居措"}},{"type":"Feature","id":32,"geometry":{"type":"Point","coordinates":[97.989667626000085,32.723919582000065,4553,null]},"properties":{"FID":32,"Id":0,"pName":"措琼湖"}},{"type":"Feature","id":33,"geometry":{"type":"Point","coordinates":[98.014381322000077,32.703222895000067,4739,null]},"properties":{"FID":33,"Id":0,"pName":"措庆湖"}},{"type":"Feature","id":34,"geometry":{"type":"Point","coordinates":[98.991681933000052,33.044061928000076,4645,null]},"properties":{"FID":34,"Id":0,"pName":"措卡童湖"}},{"type":"Feature","id":35,"geometry":{"type":"Point","coordinates":[98.902863509000042,32.692297795000059,4620,null]},"properties":{"FID":35,"Id":0,"pName":"呷清措湖"}},{"type":"Feature","id":36,"geometry":{"type":"Point","coordinates":[98.172289460000059,32.449949874000026,4790,null]},"properties":{"FID":36,"Id":0,"pName":"克日错朗玛"}},{"type":"Feature","id":37,"geometry":{"type":"Point","coordinates":[99.589189293000061,30.813233377000074,4008,null]},"properties":{"FID":37,"Id":0,"pName":"麦拉降措"}},{"type":"Feature","id":38,"geometry":{"type":"Point","coordinates":[99.045973866000054,30.659794521000038,4601,null]},"properties":{"FID":38,"Id":0,"pName":"绿石湖"}},{"type":"Feature","id":39,"geometry":{"type":"Point","coordinates":[99.721916624000073,31.275340928000048,4598,null]},"properties":{"FID":39,"Id":0,"pName":"绒咪措"}},{"type":"Feature","id":40,"geometry":{"type":"Point","coordinates":[99.770175615000085,31.241314700000032,4573,null]},"properties":{"FID":40,"Id":0,"pName":"瓦金措"}},{"type":"Feature","id":41,"geometry":{"type":"Point","coordinates":[99.098628770000062,31.248310953000043,4625,null]},"properties":{"FID":41,"Id":0,"pName":"珠尼措"}},{"type":"Feature","id":42,"geometry":{"type":"Point","coordinates":[98.793380243000058,31.172028658000045,3824,null]},"properties":{"FID":42,"Id":0,"pName":"月亮湖"}},{"type":"Feature","id":43,"geometry":{"type":"Point","coordinates":[99.606435092000083,31.388924296000027,4549,null]},"properties":{"FID":43,"Id":0,"pName":"措朗玛"}},{"type":"Feature","id":44,"geometry":{"type":"Point","coordinates":[98.804272406000052,30.896733888000028,3398,null]},"properties":{"FID":44,"Id":0,"pName":"措拉"}},{"type":"Feature","id":45,"geometry":{"type":"Point","coordinates":[99.099370645000079,30.63375704200007,3443,null]},"properties":{"FID":45,"Id":0,"pName":"巴巴措"}},{"type":"Feature","id":46,"geometry":{"type":"Point","coordinates":[98.91562771100007,31.177907809000033,4605,null]},"properties":{"FID":46,"Id":0,"pName":"多布措"}},{"type":"Feature","id":47,"geometry":{"type":"Point","coordinates":[98.912191286000052,31.181140592000077,4565,null]},"properties":{"FID":47,"Id":0,"pName":"夏希措"}},{"type":"Feature","id":48,"geometry":{"type":"Point","coordinates":[99.800491495000074,31.584810950000076,4620,null]},"properties":{"FID":48,"Id":0,"pName":"玉措"}},{"type":"Feature","id":49,"geometry":{"type":"Point","coordinates":[100.49489473200003,29.54666411200003,4562,null]},"properties":{"FID":49,"Id":0,"pName":"马弄错"}},{"type":"Feature","id":50,"geometry":{"type":"Point","coordinates":[100.36118837100008,29.52998320100005,4414,null]},"properties":{"FID":50,"Id":0,"pName":"错纳"}},{"type":"Feature","id":51,"geometry":{"type":"Point","coordinates":[100.28040454100005,29.409478534000073,4259,null]},"properties":{"FID":51,"Id":0,"pName":"错根隆"}},{"type":"Feature","id":52,"geometry":{"type":"Point","coordinates":[100.20654452200006,30.204378115000054,4557,null]},"properties":{"FID":52,"Id":0,"pName":"达弄错"}},{"type":"Feature","id":53,"geometry":{"type":"Point","coordinates":[100.12664851500006,29.615383997000038,4569,null]},"properties":{"FID":53,"Id":0,"pName":"贝斗措"}},{"type":"Feature","id":54,"geometry":{"type":"Point","coordinates":[99.738157701000034,30.155494432000069,4293,null]},"properties":{"FID":54,"Id":0,"pName":"若根措"}},{"type":"Feature","id":55,"geometry":{"type":"Point","coordinates":[100.75142368000007,29.507646756000042,4542,null]},"properties":{"FID":55,"Id":0,"pName":"舍额错"}},{"type":"Feature","id":56,"geometry":{"type":"Point","coordinates":[99.986517418000062,29.81354813300004,4362,null]},"properties":{"FID":56,"Id":0,"pName":"胡巴希则"}},{"type":"Feature","id":57,"geometry":{"type":"Point","coordinates":[99.646787429000085,30.370969134000063,4704,null]},"properties":{"FID":57,"Id":0,"pName":"渣弄措"}},{"type":"Feature","id":58,"geometry":{"type":"Point","coordinates":[100.46161957500004,29.197022784000069,4401,null]},"properties":{"FID":58,"Id":0,"pName":"波尼庞措"}},{"type":"Feature","id":59,"geometry":{"type":"Point","coordinates":[100.19339574300005,30.271940972000039,4659,null]},"properties":{"FID":59,"Id":0,"pName":"汉音错"}},{"type":"Feature","id":60,"geometry":{"type":"Point","coordinates":[100.03028374700006,30.614559404000033,4582,null]},"properties":{"FID":60,"Id":0,"pName":"格拉措"}},{"type":"Feature","id":61,"geometry":{"type":"Point","coordinates":[99.989236456000071,30.389513057000045,4659,null]},"properties":{"FID":61,"Id":0,"pName":"措松措"}},{"type":"Feature","id":62,"geometry":{"type":"Point","coordinates":[99.985202026000081,30.363614247000044,4615,null]},"properties":{"FID":62,"Id":0,"pName":"措拉玛"}},{"type":"Feature","id":63,"geometry":{"type":"Point","coordinates":[99.957263114000057,29.81685802800007,4237,null]},"properties":{"FID":63,"Id":0,"pName":"拉合错尼"}},{"type":"Feature","id":64,"geometry":{"type":"Point","coordinates":[99.963410475000046,29.810726355000043,4235,null]},"properties":{"FID":64,"Id":0,"pName":"拉合错尼2"}},{"type":"Feature","id":65,"geometry":{"type":"Point","coordinates":[100.14869821400004,29.825544786000023,4689,null]},"properties":{"FID":65,"Id":0,"pName":"扎拉措"}},{"type":"Feature","id":66,"geometry":{"type":"Point","coordinates":[100.03313260000004,29.886510089000069,4561,null]},"properties":{"FID":66,"Id":0,"pName":"心海"}},{"type":"Feature","id":67,"geometry":{"type":"Point","coordinates":[100.50946172200008,29.462301119000074,4546,null]},"properties":{"FID":67,"Id":0,"pName":"德巫错扎卡"}},{"type":"Feature","id":68,"geometry":{"type":"Point","coordinates":[100.05859866900005,29.922946621000051,4559,null]},"properties":{"FID":68,"Id":0,"pName":"尼郎错"}},{"type":"Feature","id":69,"geometry":{"type":"Point","coordinates":[100.05576813900007,29.908985787000063,4695,null]},"properties":{"FID":69,"Id":0,"pName":"尼郎错2"}},{"type":"Feature","id":70,"geometry":{"type":"Point","coordinates":[100.78573945700003,29.458241281000028,4516,null]},"properties":{"FID":70,"Id":0,"pName":"寿木措"}},{"type":"Feature","id":71,"geometry":{"type":"Point","coordinates":[99.669681173000072,30.138228993000041,4500,null]},"properties":{"FID":71,"Id":0,"pName":"哈日翁青措"}},{"type":"Feature","id":72,"geometry":{"type":"Point","coordinates":[100.76193303300005,29.501051288000042,4538,null]},"properties":{"FID":72,"Id":0,"pName":"包巫措"}},{"type":"Feature","id":73,"geometry":{"type":"Point","coordinates":[99.988389371000039,30.428728584000055,4598,null]},"properties":{"FID":73,"Id":0,"pName":"侯查措"}},{"type":"Feature","id":74,"geometry":{"type":"Point","coordinates":[100.02070532000005,29.818960476000029,4513,null]},"properties":{"FID":74,"Id":0,"pName":"一卡错"}},{"type":"Feature","id":75,"geometry":{"type":"Point","coordinates":[100.62594608300009,31.323364512000069,4565,null]},"properties":{"FID":75,"Id":0,"pName":"阿拉措果"}},{"type":"Feature","id":76,"geometry":{"type":"Point","coordinates":[100.62596858200004,31.331828231000031,4564,null]},"properties":{"FID":76,"Id":0,"pName":"措琼"}},{"type":"Feature","id":77,"geometry":{"type":"Point","coordinates":[100.64527534600006,31.314114068000038,4424,null]},"properties":{"FID":77,"Id":0,"pName":"勒达措"}},{"type":"Feature","id":78,"geometry":{"type":"Point","coordinates":[102.03041922300008,29.860392207000075,3522,null]},"properties":{"FID":78,"Id":0,"pName":"雅家情海"}},{"type":"Feature","id":79,"geometry":{"type":"Point","coordinates":[102.22606092100006,29.747081512000079,1706,null]},"properties":{"FID":79,"Id":0,"pName":"兴隆海子"}},{"type":"Feature","id":80,"geometry":{"type":"Point","coordinates":[99.831519040000046,31.388118749000057,4389,null]},"properties":{"FID":80,"Id":0,"pName":"梁炯措"}},{"type":"Feature","id":81,"geometry":{"type":"Point","coordinates":[100.11334300500005,31.077611412000067,4271,null]},"properties":{"FID":81,"Id":0,"pName":"措鲁哈"}},{"type":"Feature","id":82,"geometry":{"type":"Point","coordinates":[100.13430189400003,30.736242103000052,3807,null]},"properties":{"FID":82,"Id":0,"pName":"措卡湖"}},{"type":"Feature","id":83,"geometry":{"type":"Point","coordinates":[99.963569157000052,30.825957073000041,4639,null]},"properties":{"FID":83,"Id":0,"pName":"扎格措2"}},{"type":"Feature","id":84,"geometry":{"type":"Point","coordinates":[99.947725001000038,30.846339678000049,4532,null]},"properties":{"FID":84,"Id":0,"pName":"扎格措1"}},{"type":"Feature","id":85,"geometry":{"type":"Point","coordinates":[99.957227290000048,30.734803372000044,4635,null]},"properties":{"FID":85,"Id":0,"pName":"多绒麻措湖"}},{"type":"Feature","id":86,"geometry":{"type":"Point","coordinates":[99.060120420000032,32.003296985000077,3983,null]},"properties":{"FID":86,"Id":0,"pName":"木日措"}},{"type":"Feature","id":87,"geometry":{"type":"Point","coordinates":[99.009044051000046,32.007013124000025,4147,null]},"properties":{"FID":87,"Id":0,"pName":"昂措"}},{"type":"Feature","id":88,"geometry":{"type":"Point","coordinates":[98.925974439000072,32.072624491000056,3933,null]},"properties":{"FID":88,"Id":0,"pName":"挡子措"}},{"type":"Feature","id":89,"geometry":{"type":"Point","coordinates":[99.390124679000053,28.327816542000051,4284,null]},"properties":{"FID":89,"Id":0,"pName":"泽加措"}},{"type":"Feature","id":90,"geometry":{"type":"Point","coordinates":[99.376286863000075,28.349590149000051,4102,null]},"properties":{"FID":90,"Id":0,"pName":"次仁措"}},{"type":"Feature","id":91,"geometry":{"type":"Point","coordinates":[99.397864847000051,28.33059118400007,4580,null]},"properties":{"FID":91,"Id":0,"pName":"措南措"}},{"type":"Feature","id":92,"geometry":{"type":"Point","coordinates":[99.390332237000052,28.356934577000061,4704,null]},"properties":{"FID":92,"Id":0,"pName":"孟扎措"}},{"type":"Feature","id":93,"geometry":{"type":"Point","coordinates":[101.34047471700006,29.270186342000045,4027,null]},"properties":{"FID":93,"Id":0,"pName":"莲花湖"}},{"type":"Feature","id":94,"geometry":{"type":"Point","coordinates":[101.77762760100006,30.183998464000069,4098,null]},"properties":{"FID":94,"Id":0,"pName":"红海子"}},{"type":"Feature","id":95,"geometry":{"type":"Point","coordinates":[101.33147969900006,29.328230845000064,3581,null]},"properties":{"FID":95,"Id":0,"pName":"月亮湖"}},{"type":"Feature","id":96,"geometry":{"type":"Point","coordinates":[99.563098503000049,30.548799217000067,4767,null]},"properties":{"FID":96,"Id":0,"pName":"闷措湖"}},{"type":"Feature","id":97,"geometry":{"type":"Point","coordinates":[99.482847993000064,30.548920480000049,4375,null]},"properties":{"FID":97,"Id":0,"pName":"觉木措"}},{"type":"Feature","id":98,"geometry":{"type":"Point","coordinates":[99.533764157000064,29.631739110000069,4707,null]},"properties":{"FID":98,"Id":0,"pName":"罗措仁"}},{"type":"Feature","id":99,"geometry":{"type":"Point","coordinates":[99.330145376000075,29.971663049000028,4807,null]},"properties":{"FID":99,"Id":0,"pName":"朱杰扎然措"}},{"type":"Feature","id":100,"geometry":{"type":"Point","coordinates":[99.382380150000074,30.046955972000035,4701,null]},"properties":{"FID":100,"Id":0,"pName":"措转"}},{"type":"Feature","id":101,"geometry":{"type":"Point","coordinates":[99.381488501000035,30.051370257000031,4659,null]},"properties":{"FID":101,"Id":0,"pName":"措格达"}},{"type":"Feature","id":102,"geometry":{"type":"Point","coordinates":[99.574530846000073,30.525400283000067,4588,null]},"properties":{"FID":102,"Id":0,"pName":"措普上湖"}},{"type":"Feature","id":103,"geometry":{"type":"Point","coordinates":[99.304585903000032,29.998787065000045,4841,null]},"properties":{"FID":103,"Id":0,"pName":"扎瓦杰龙"}},{"type":"Feature","id":104,"geometry":{"type":"Point","coordinates":[99.280254702000036,29.513317101000041,4735,null]},"properties":{"FID":104,"Id":0,"pName":"如措"}},{"type":"Feature","id":105,"geometry":{"type":"Point","coordinates":[99.532818127000041,29.610665766000068,4658,null]},"properties":{"FID":105,"Id":0,"pName":"夏窝格扎"}},{"type":"Feature","id":106,"geometry":{"type":"Point","coordinates":[99.18176625600006,29.748651031000065,4783,null]},"properties":{"FID":106,"Id":0,"pName":"伦多错"}},{"type":"Feature","id":107,"geometry":{"type":"Point","coordinates":[99.294447258000048,29.997728897000059,4707,null]},"properties":{"FID":107,"Id":0,"pName":"亚切格顶措"}},{"type":"Feature","id":108,"geometry":{"type":"Point","coordinates":[100.00024512200008,28.894415175000063,4370,null]},"properties":{"FID":108,"Id":0,"pName":"泽仁措"}},{"type":"Feature","id":109,"geometry":{"type":"Point","coordinates":[99.972571609000056,28.754453659000035,4688,null]},"properties":{"FID":109,"Id":0,"pName":"沙绕措"}},{"type":"Feature","id":110,"geometry":{"type":"Point","coordinates":[100.03824953000009,29.090681053000026,4405,null]},"properties":{"FID":110,"Id":0,"pName":"次拥措"}},{"type":"Feature","id":111,"geometry":{"type":"Point","coordinates":[99.950255201000061,28.601276145000043,4248,null]},"properties":{"FID":111,"Id":0,"pName":"查呈措"}},{"type":"Feature","id":112,"geometry":{"type":"Point","coordinates":[99.951697681000041,28.909991096000056,4459,null]},"properties":{"FID":112,"Id":0,"pName":"松措"}},{"type":"Feature","id":113,"geometry":{"type":"Point","coordinates":[99.968188880000071,28.899031444000059,4510,null]},"properties":{"FID":113,"Id":0,"pName":"巴姆七湖"}},{"type":"Feature","id":114,"geometry":{"type":"Point","coordinates":[99.999047682000082,28.857638458000054,4645,null]},"properties":{"FID":114,"Id":0,"pName":"吾年措"}},{"type":"Feature","id":115,"geometry":{"type":"Point","coordinates":[101.57346717200005,29.092203152000025,4280,null]},"properties":{"FID":115,"Id":0,"pName":"猎塔湖"}},{"type":"Feature","id":116,"geometry":{"type":"Point","coordinates":[101.40842114100008,29.154667405000055,3679,null]},"properties":{"FID":116,"Id":0,"pName":"伍须海"}},{"type":"Feature","id":117,"geometry":{"type":"Point","coordinates":[101.60081592300008,28.567803312000024,4071,null]},"properties":{"FID":117,"Id":0,"pName":"仙女湖"}},{"type":"Feature","id":118,"geometry":{"type":"Point","coordinates":[101.36467876600005,31.064061313000025,4128,null]},"properties":{"FID":118,"Id":0,"pName":"葫芦海"}},{"type":"Feature","id":119,"geometry":{"type":"Point","coordinates":[101.35879845500006,31.051350071000059,4304,null]},"properties":{"FID":119,"Id":0,"pName":"卓尤母措"}},{"type":"Feature","id":120,"geometry":{"type":"Point","coordinates":[100.14652223300004,30.828588301000025,2955,null]},"properties":{"FID":120,"Id":0,"pName":"呷拉西"}},{"type":"Feature","id":121,"geometry":{"type":"Point","coordinates":[100.26570765500009,29.922701054000072,3860,null]},"properties":{"FID":121,"Id":0,"pName":"多曲"}},{"type":"Feature","id":122,"geometry":{"type":"Point","coordinates":[99.114090605000058,29.193167885000037,2265,null]},"properties":{"FID":122,"Id":0,"pName":"中心绒沟"}},{"type":"Feature","id":123,"geometry":{"type":"Point","coordinates":[99.197709031000045,29.934893878000025,3249,null]},"properties":{"FID":123,"Id":0,"pName":"亚切拉沟"}},{"type":"Feature","id":124,"geometry":{"type":"Point","coordinates":[99.172398918000056,30.109492568000064,2655,null]},"properties":{"FID":124,"Id":0,"pName":"党巴河"}},{"type":"Feature","id":125,"geometry":{"type":"Point","coordinates":[99.054157082000074,29.905188485000053,2465,null]},"properties":{"FID":125,"Id":0,"pName":"兰多曲"}},{"type":"Feature","id":126,"geometry":{"type":"Point","coordinates":[99.464082330000053,29.999633150000079,4046,null]},"properties":{"FID":126,"Id":0,"pName":"冬苟沟"}},{"type":"Feature","id":127,"geometry":{"type":"Point","coordinates":[99.269217720000086,30.199762391000036,3024,null]},"properties":{"FID":127,"Id":0,"pName":"桑曲"}},{"type":"Feature","id":128,"geometry":{"type":"Point","coordinates":[99.255662898000082,30.277721623000048,2920,null]},"properties":{"FID":128,"Id":0,"pName":"欧帕柯"}},{"type":"Feature","id":129,"geometry":{"type":"Point","coordinates":[99.531186834000039,29.756782222000027,4096,null]},"properties":{"FID":129,"Id":0,"pName":"哈隆巴沟"}},{"type":"Feature","id":130,"geometry":{"type":"Point","coordinates":[99.471233908000045,30.51490334500005,4141,null]},"properties":{"FID":130,"Id":0,"pName":"夏色沟"}},{"type":"Feature","id":131,"geometry":{"type":"Point","coordinates":[99.326951139000073,29.651059995000026,3662,null]},"properties":{"FID":131,"Id":0,"pName":"夺雪沟"}},{"type":"Feature","id":132,"geometry":{"type":"Point","coordinates":[99.017947849000052,29.616237109000053,2456,null]},"properties":{"FID":132,"Id":0,"pName":"尼曲"}},{"type":"Feature","id":133,"geometry":{"type":"Point","coordinates":[99.216064407000033,30.297702238000056,2816,null]},"properties":{"FID":133,"Id":0,"pName":"岗通隆沟"}},{"type":"Feature","id":134,"geometry":{"type":"Point","coordinates":[99.205505909000067,30.343939582000075,3192,null]},"properties":{"FID":134,"Id":0,"pName":"岗通隆沟右支河"}},{"type":"Feature","id":135,"geometry":{"type":"Point","coordinates":[99.52653986200005,30.472367758000075,4039,null]},"properties":{"FID":135,"Id":0,"pName":"张堆沟"}},{"type":"Feature","id":136,"geometry":{"type":"Point","coordinates":[99.046545778000052,29.579666389000067,2476,null]},"properties":{"FID":136,"Id":0,"pName":"归洼曲"}},{"type":"Feature","id":137,"geometry":{"type":"Point","coordinates":[99.390103225000075,30.177616250000028,3457,null]},"properties":{"FID":137,"Id":0,"pName":"扛日隆沟"}},{"type":"Feature","id":138,"geometry":{"type":"Point","coordinates":[99.424980648000087,29.902912393000065,3888,null]},"properties":{"FID":138,"Id":0,"pName":"拉普沟"}},{"type":"Feature","id":139,"geometry":{"type":"Point","coordinates":[99.307360794000033,29.274618051000061,2988,null]},"properties":{"FID":139,"Id":0,"pName":"日测西"}},{"type":"Feature","id":140,"geometry":{"type":"Point","coordinates":[99.042892742000049,29.870992153000032,2502,null]},"properties":{"FID":140,"Id":0,"pName":"朗达曲嘎"}},{"type":"Feature","id":141,"geometry":{"type":"Point","coordinates":[99.234942682000053,29.330384896000055,2754,null]},"properties":{"FID":141,"Id":0,"pName":"松甫沟"}},{"type":"Feature","id":142,"geometry":{"type":"Point","coordinates":[99.000513930000068,29.699464706000072,2461,null]},"properties":{"FID":142,"Id":0,"pName":"曾哇沟"}},{"type":"Feature","id":143,"geometry":{"type":"Point","coordinates":[99.308451689000037,29.331819984000049,2831,null]},"properties":{"FID":143,"Id":0,"pName":"月日西沟"}},{"type":"Feature","id":144,"geometry":{"type":"Point","coordinates":[98.991588840000077,30.281042935000073,2717,null]},"properties":{"FID":144,"Id":0,"pName":"甲英沟"}},{"type":"Feature","id":145,"geometry":{"type":"Point","coordinates":[99.329232654000066,29.586014900000066,3675,null]},"properties":{"FID":145,"Id":0,"pName":"红东沟"}},{"type":"Feature","id":146,"geometry":{"type":"Point","coordinates":[99.354961246000073,29.569078094000076,3491,null]},"properties":{"FID":146,"Id":0,"pName":"纳纳公沟"}},{"type":"Feature","id":147,"geometry":{"type":"Point","coordinates":[99.499321427000041,29.580548862000057,4296,null]},"properties":{"FID":147,"Id":0,"pName":"结绒溪右支河"}},{"type":"Feature","id":148,"geometry":{"type":"Point","coordinates":[99.074697507000053,29.32268416200003,2352,null]},"properties":{"FID":148,"Id":0,"pName":"罗绒西沟"}},{"type":"Feature","id":149,"geometry":{"type":"Point","coordinates":[99.031153480000057,30.110221310000043,2695,null]},"properties":{"FID":149,"Id":0,"pName":"毕英曲"}},{"type":"Feature","id":150,"geometry":{"type":"Point","coordinates":[99.439871983000046,29.695464174000051,3519,null]},"properties":{"FID":150,"Id":0,"pName":"波密河"}},{"type":"Feature","id":151,"geometry":{"type":"Point","coordinates":[99.11738772700005,29.091857526000069,2258,null]},"properties":{"FID":151,"Id":0,"pName":"热思沟"}},{"type":"Feature","id":152,"geometry":{"type":"Point","coordinates":[99.320890816000087,30.217735207000032,3110,null]},"properties":{"FID":152,"Id":0,"pName":"错纳柯"}},{"type":"Feature","id":153,"geometry":{"type":"Point","coordinates":[99.504895784000041,30.289664323000068,4139,null]},"properties":{"FID":153,"Id":0,"pName":"羽且柯"}},{"type":"Feature","id":154,"geometry":{"type":"Point","coordinates":[99.249408272000039,29.936735940000062,3789,null]},"properties":{"FID":154,"Id":0,"pName":"阔达曲沟"}},{"type":"Feature","id":155,"geometry":{"type":"Point","coordinates":[98.971262716000069,30.374356745000057,2648,null]},"properties":{"FID":155,"Id":0,"pName":"随查略曲"}},{"type":"Feature","id":156,"geometry":{"type":"Point","coordinates":[99.320860328000037,29.274486791000072,3058,null]},"properties":{"FID":156,"Id":0,"pName":"雄达西"}},{"type":"Feature","id":157,"geometry":{"type":"Point","coordinates":[99.175493577000054,30.118123144000037,2665,null]},"properties":{"FID":157,"Id":0,"pName":"麻顶沟"}},{"type":"Feature","id":158,"geometry":{"type":"Point","coordinates":[102.44318266500005,30.686137264000024,3433,null]},"properties":{"FID":158,"Id":0,"pName":"鹅咀沟"}},{"type":"Feature","id":159,"geometry":{"type":"Point","coordinates":[101.54929774700008,30.043936515000041,3446,null]},"properties":{"FID":159,"Id":0,"pName":"鱼子西沟"}},{"type":"Feature","id":160,"geometry":{"type":"Point","coordinates":[101.96899632300006,29.395413349000023,2363,null]},"properties":{"FID":160,"Id":0,"pName":"环河"}},{"type":"Feature","id":161,"geometry":{"type":"Point","coordinates":[102.10766450400007,30.447391535000065,1683,null]},"properties":{"FID":161,"Id":0,"pName":"俄日沟"}},{"type":"Feature","id":162,"geometry":{"type":"Point","coordinates":[101.26274432300005,30.192440401000056,3264,null]},"properties":{"FID":162,"Id":0,"pName":"日阿沟"}},{"type":"Feature","id":163,"geometry":{"type":"Point","coordinates":[101.51900939900008,29.753279851000059,3276,null]},"properties":{"FID":163,"Id":0,"pName":"拉兹隆巴沟"}},{"type":"Feature","id":164,"geometry":{"type":"Point","coordinates":[101.58013965300006,30.067117630000041,3497,null]},"properties":{"FID":164,"Id":0,"pName":"多日阿嘎莫沟"}},{"type":"Feature","id":165,"geometry":{"type":"Point","coordinates":[101.69435303800009,30.089953078000065,3664,null]},"properties":{"FID":165,"Id":0,"pName":"拉西沟"}},{"type":"Feature","id":166,"geometry":{"type":"Point","coordinates":[101.49538583600008,30.046797764000075,3429,null]},"properties":{"FID":166,"Id":0,"pName":"呷以隆巴沟"}},{"type":"Feature","id":167,"geometry":{"type":"Point","coordinates":[101.58623488700005,29.920465809000063,3352,null]},"properties":{"FID":167,"Id":0,"pName":"木弄"}},{"type":"Feature","id":168,"geometry":{"type":"Point","coordinates":[101.52065772600008,30.316819078000037,3695,null]},"properties":{"FID":168,"Id":0,"pName":"甘居柯"}},{"type":"Feature","id":169,"geometry":{"type":"Point","coordinates":[101.53494025000003,30.012333897000076,3404,null]},"properties":{"FID":169,"Id":0,"pName":"多日啊嘎沟"}},{"type":"Feature","id":170,"geometry":{"type":"Point","coordinates":[102.05268024200006,30.532985115000031,1678,null]},"properties":{"FID":170,"Id":0,"pName":"大里沟"}},{"type":"Feature","id":171,"geometry":{"type":"Point","coordinates":[101.58912068000006,29.456922156000076,3570,null]},"properties":{"FID":171,"Id":0,"pName":"城子隆巴沟"}},{"type":"Feature","id":172,"geometry":{"type":"Point","coordinates":[102.05115980300008,30.665508535000072,1831,null]},"properties":{"FID":172,"Id":0,"pName":"门子沟"}},{"type":"Feature","id":173,"geometry":{"type":"Point","coordinates":[101.30537251400006,29.430239716000074,2817,null]},"properties":{"FID":173,"Id":0,"pName":"苦西绒沟"}},{"type":"Feature","id":174,"geometry":{"type":"Point","coordinates":[102.17860462000004,30.279573237000079,1677,null]},"properties":{"FID":174,"Id":0,"pName":"响水沟"}},{"type":"Feature","id":175,"geometry":{"type":"Point","coordinates":[101.52973678400008,30.32839860100006,3703,null]},"properties":{"FID":175,"Id":0,"pName":"扎拉贡玛"}},{"type":"Feature","id":176,"geometry":{"type":"Point","coordinates":[102.11843353400008,30.423187222000024,1849,null]},"properties":{"FID":176,"Id":0,"pName":"野牛沟"}},{"type":"Feature","id":177,"geometry":{"type":"Point","coordinates":[101.62636395300007,30.11960349800006,3571,null]},"properties":{"FID":177,"Id":0,"pName":"贡巴西沟"}},{"type":"Feature","id":178,"geometry":{"type":"Point","coordinates":[101.10554524000008,29.137256614000023,2222,null]},"properties":{"FID":178,"Id":0,"pName":"赖子沟"}},{"type":"Feature","id":179,"geometry":{"type":"Point","coordinates":[101.44849215400006,29.450401037000063,3368,null]},"properties":{"FID":179,"Id":0,"pName":"久库沟"}},{"type":"Feature","id":180,"geometry":{"type":"Point","coordinates":[101.53186108100005,30.336179446000074,3702,null]},"properties":{"FID":180,"Id":0,"pName":"额达柯"}},{"type":"Feature","id":181,"geometry":{"type":"Point","coordinates":[101.44469247000006,29.677502396000079,3186,null]},"properties":{"FID":181,"Id":0,"pName":"赤吉西隆巴沟"}},{"type":"Feature","id":182,"geometry":{"type":"Point","coordinates":[101.55426759800008,29.852522174000057,3321,null]},"properties":{"FID":182,"Id":0,"pName":"甲根垻沟"}},{"type":"Feature","id":183,"geometry":{"type":"Point","coordinates":[101.92447528100007,30.408280246000061,2659,null]},"properties":{"FID":183,"Id":0,"pName":"高尔沟"}},{"type":"Feature","id":184,"geometry":{"type":"Point","coordinates":[102.27741672200005,30.369671704000041,1951,null]},"properties":{"FID":184,"Id":0,"pName":"汤坝沟"}},{"type":"Feature","id":185,"geometry":{"type":"Point","coordinates":[101.95006709100005,29.99573498500007,2734,null]},"properties":{"FID":185,"Id":0,"pName":"折多塘沟"}},{"type":"Feature","id":186,"geometry":{"type":"Point","coordinates":[101.56672369900008,29.966686047000053,3368,null]},"properties":{"FID":186,"Id":0,"pName":"布恰巴沟"}},{"type":"Feature","id":187,"geometry":{"type":"Point","coordinates":[101.06888363600007,29.363757892000024,2319,null]},"properties":{"FID":187,"Id":0,"pName":"夹贺沟"}},{"type":"Feature","id":188,"geometry":{"type":"Point","coordinates":[101.58459383700006,29.947329991000061,3366,null]},"properties":{"FID":188,"Id":0,"pName":"塔拉沟"}},{"type":"Feature","id":189,"geometry":{"type":"Point","coordinates":[101.54803184200006,29.651100185000075,3558,null]},"properties":{"FID":189,"Id":0,"pName":"吉如西沟"}},{"type":"Feature","id":190,"geometry":{"type":"Point","coordinates":[102.18683229400006,30.184910064000064,1458,null]},"properties":{"FID":190,"Id":0,"pName":"前溪沟"}},{"type":"Feature","id":191,"geometry":{"type":"Point","coordinates":[101.44795466600004,29.685186653000073,3178,null]},"properties":{"FID":191,"Id":0,"pName":"俄巴绒隆巴沟"}},{"type":"Feature","id":192,"geometry":{"type":"Point","coordinates":[101.63202077200003,29.831109283000046,3517,null]},"properties":{"FID":192,"Id":0,"pName":"亚拢沟"}},{"type":"Feature","id":193,"geometry":{"type":"Point","coordinates":[101.56670030600009,30.386632141000064,3691,null]},"properties":{"FID":193,"Id":0,"pName":"乾宁沟"}},{"type":"Feature","id":194,"geometry":{"type":"Point","coordinates":[101.24246429500005,30.221667526000033,3750,null]},"properties":{"FID":194,"Id":0,"pName":"苦乐沟"}},{"type":"Feature","id":195,"geometry":{"type":"Point","coordinates":[102.13646503800004,30.355128644000047,1696,null]},"properties":{"FID":195,"Id":0,"pName":"下索子沟"}},{"type":"Feature","id":196,"geometry":{"type":"Point","coordinates":[101.22828696200008,29.417274985000063,2668,null]},"properties":{"FID":196,"Id":0,"pName":"罗让沟"}},{"type":"Feature","id":197,"geometry":{"type":"Point","coordinates":[101.79146960000008,29.509708829000033,3194,null]},"properties":{"FID":197,"Id":0,"pName":"滕增沟"}},{"type":"Feature","id":198,"geometry":{"type":"Point","coordinates":[101.40986907600006,29.673610416000031,3155,null]},"properties":{"FID":198,"Id":0,"pName":"索德隆巴沟"}},{"type":"Feature","id":199,"geometry":{"type":"Point","coordinates":[102.19906513100005,30.220407273000035,1458,null]},"properties":{"FID":199,"Id":0,"pName":"磨子沟"}},{"type":"Feature","id":200,"geometry":{"type":"Point","coordinates":[101.48990942700004,29.644165531000056,3370,null]},"properties":{"FID":200,"Id":0,"pName":"兄罗隆巴沟"}},{"type":"Feature","id":201,"geometry":{"type":"Point","coordinates":[101.35077927600008,30.186519760000067,3535,null]},"properties":{"FID":201,"Id":0,"pName":"王呷河"}},{"type":"Feature","id":202,"geometry":{"type":"Point","coordinates":[101.91798310300004,30.403358066000067,2696,null]},"properties":{"FID":202,"Id":0,"pName":"烂庄子沟"}},{"type":"Feature","id":203,"geometry":{"type":"Point","coordinates":[101.91385152900006,30.184877991000064,2821,null]},"properties":{"FID":203,"Id":0,"pName":"木格错沟"}},{"type":"Feature","id":204,"geometry":{"type":"Point","coordinates":[102.06124548700006,30.298670273000027,2617,null]},"properties":{"FID":204,"Id":0,"pName":"文昌沟"}},{"type":"Feature","id":205,"geometry":{"type":"Point","coordinates":[101.88057291500007,29.991971316000047,3171,null]},"properties":{"FID":205,"Id":0,"pName":"折多河"}},{"type":"Feature","id":206,"geometry":{"type":"Point","coordinates":[101.96117016000005,30.057328540000071,2489,null]},"properties":{"FID":206,"Id":0,"pName":"子耳沟"}},{"type":"Feature","id":207,"geometry":{"type":"Point","coordinates":[102.29560041200006,30.497448672000075,2336,null]},"properties":{"FID":207,"Id":0,"pName":"打枪棚沟"}},{"type":"Feature","id":208,"geometry":{"type":"Point","coordinates":[101.96536062200005,30.400577453000039,2506,null]},"properties":{"FID":208,"Id":0,"pName":"山埂子沟"}},{"type":"Feature","id":209,"geometry":{"type":"Point","coordinates":[102.06149829200007,30.603127073000053,1772,null]},"properties":{"FID":209,"Id":0,"pName":"孔泥坝沟"}},{"type":"Feature","id":210,"geometry":{"type":"Point","coordinates":[102.39538875100004,30.623501662000024,3081,null]},"properties":{"FID":210,"Id":0,"pName":"子龙沟"}},{"type":"Feature","id":211,"geometry":{"type":"Point","coordinates":[101.84105529900006,30.279640475000065,3156,null]},"properties":{"FID":211,"Id":0,"pName":"大龙布沟"}},{"type":"Feature","id":212,"geometry":{"type":"Point","coordinates":[101.32099608900006,29.544673321000062,2988,null]},"properties":{"FID":212,"Id":0,"pName":"哲鲁库沟"}},{"type":"Feature","id":213,"geometry":{"type":"Point","coordinates":[102.16776087800008,30.074805382000079,1355,null]},"properties":{"FID":213,"Id":0,"pName":"康定河"}},{"type":"Feature","id":214,"geometry":{"type":"Point","coordinates":[99.346421065000072,30.317129102000024,3298,null]},"properties":{"FID":214,"Id":0,"pName":"德曲"}},{"type":"Feature","id":215,"geometry":{"type":"Point","coordinates":[101.57011755000008,29.385236003000045,3750,null]},"properties":{"FID":215,"Id":0,"pName":"合德沟"}},{"type":"Feature","id":216,"geometry":{"type":"Point","coordinates":[101.85707969600008,29.841798685000072,3911,null]},"properties":{"FID":216,"Id":0,"pName":"加则拉"}},{"type":"Feature","id":217,"geometry":{"type":"Point","coordinates":[101.05039766300007,29.250080213000047,2207,null]},"properties":{"FID":217,"Id":0,"pName":"冷子沟"}},{"type":"Feature","id":218,"geometry":{"type":"Point","coordinates":[102.29103866500009,30.495674910000048,2336,null]},"properties":{"FID":218,"Id":0,"pName":"公地沟"}},{"type":"Feature","id":219,"geometry":{"type":"Point","coordinates":[101.85845458600005,29.340051244000051,2979,null]},"properties":{"FID":219,"Id":0,"pName":"五省庙沟"}},{"type":"Feature","id":220,"geometry":{"type":"Point","coordinates":[101.58767692900005,29.361043365000057,3848,null]},"properties":{"FID":220,"Id":0,"pName":"上程子沟"}},{"type":"Feature","id":221,"geometry":{"type":"Point","coordinates":[99.778063236000037,29.759343336000029,3596,null]},"properties":{"FID":221,"Id":0,"pName":"格则沟"}},{"type":"Feature","id":222,"geometry":{"type":"Point","coordinates":[101.08218135900006,29.618339411000079,2438,null]},"properties":{"FID":222,"Id":0,"pName":"恶古沟"}},{"type":"Feature","id":223,"geometry":{"type":"Point","coordinates":[100.49065055700004,29.295973906000029,3772,null]},"properties":{"FID":223,"Id":0,"pName":"拉曲左支河"}},{"type":"Feature","id":224,"geometry":{"type":"Point","coordinates":[100.18662831300009,30.738404650000064,2920,null]},"properties":{"FID":224,"Id":0,"pName":"日里隆巴"}},{"type":"Feature","id":225,"geometry":{"type":"Point","coordinates":[105.73534004600003,31.925517724000031,2.0777879155400198e-315,null]},"properties":{"FID":225,"Id":0,"pName":"巩河"}},{"type":"Feature","id":226,"geometry":{"type":"Point","coordinates":[105.95893687400007,32.375943892000066,2.0777950300853199e-315,null]},"properties":{"FID":226,"Id":0,"pName":"长滩河"}},{"type":"Feature","id":227,"geometry":{"type":"Point","coordinates":[105.80784164600004,31.947052556000074,2.0777892989238281e-315,null]},"properties":{"FID":227,"Id":0,"pName":"嘉陵江"}},{"type":"Feature","id":228,"geometry":{"type":"Point","coordinates":[105.77252110400008,31.935747004000063,2.0777891012975698e-315,null]},"properties":{"FID":228,"Id":0,"pName":"嘉陵江"}},{"type":"Feature","id":229,"geometry":{"type":"Point","coordinates":[100.95800660700007,29.796318189000033,2899,null]},"properties":{"FID":229,"Id":0,"pName":"智村沟"}},{"type":"Feature","id":230,"geometry":{"type":"Point","coordinates":[100.51122371000008,30.880811906000076,3970,null]},"properties":{"FID":230,"Id":0,"pName":"木马柯"}},{"type":"Feature","id":231,"geometry":{"type":"Point","coordinates":[100.21058797900008,29.968160708000028,3882,null]},"properties":{"FID":231,"Id":0,"pName":"擦岗隆洼"}},{"type":"Feature","id":232,"geometry":{"type":"Point","coordinates":[100.17013468500005,29.983131055000058,3901,null]},"properties":{"FID":232,"Id":0,"pName":"曲登沟"}},{"type":"Feature","id":233,"geometry":{"type":"Point","coordinates":[99.013911097000062,29.780729919000066,2455,null]},"properties":{"FID":233,"Id":0,"pName":"竹巴龙沟"}},{"type":"Feature","id":234,"geometry":{"type":"Point","coordinates":[101.12552868100005,29.565268414000059,2431,null]},"properties":{"FID":234,"Id":0,"pName":"格日沟"}},{"type":"Feature","id":235,"geometry":{"type":"Point","coordinates":[101.00856493000003,29.361431075000041,2262,null]},"properties":{"FID":235,"Id":0,"pName":"江益西沟"}},{"type":"Feature","id":236,"geometry":{"type":"Point","coordinates":[100.30831810800004,31.143264514000066,3071,null]},"properties":{"FID":236,"Id":0,"pName":"沙朗沟"}},{"type":"Feature","id":237,"geometry":{"type":"Point","coordinates":[98.339716811000073,34.097149868000031,4324,null]},"properties":{"FID":237,"Id":0,"pName":"热曲"}},{"type":"Feature","id":238,"geometry":{"type":"Point","coordinates":[99.825659230000042,28.787452115000065,2575,null]},"properties":{"FID":238,"Id":0,"pName":"然乌沟"}},{"type":"Feature","id":239,"geometry":{"type":"Point","coordinates":[100.61011373700006,29.047554689000037,3208,null]},"properties":{"FID":239,"Id":0,"pName":"拉曲"}},{"type":"Feature","id":240,"geometry":{"type":"Point","coordinates":[102.23237840600007,29.912136825000061,1304,null]},"properties":{"FID":240,"Id":0,"pName":"羊圈沟"}},{"type":"Feature","id":241,"geometry":{"type":"Point","coordinates":[101.32902424800005,29.553977757000041,2992,null]},"properties":{"FID":241,"Id":0,"pName":"色乌绒沟"}},{"type":"Feature","id":242,"geometry":{"type":"Point","coordinates":[98.587589470000069,31.635133240000073,2992,null]},"properties":{"FID":242,"Id":0,"pName":"色曲河"}},{"type":"Feature","id":243,"geometry":{"type":"Point","coordinates":[99.232090731000085,28.358272186000079,2119,null]},"properties":{"FID":243,"Id":0,"pName":"许曲"}},{"type":"Feature","id":244,"geometry":{"type":"Point","coordinates":[100.68516832400007,31.40381734500005,3124,null]},"properties":{"FID":244,"Id":0,"pName":"达曲"}},{"type":"Feature","id":245,"geometry":{"type":"Point","coordinates":[101.03824310500005,29.232249656000079,2241,null]},"properties":{"FID":245,"Id":0,"pName":"邓夏沟"}},{"type":"Feature","id":246,"geometry":{"type":"Point","coordinates":[100.30464896500007,29.23618543300006,4459,null]},"properties":{"FID":246,"Id":0,"pName":"冬措"}},{"type":"Feature","id":247,"geometry":{"type":"Point","coordinates":[100.09629448900006,29.60830792400003,4530,null]},"properties":{"FID":247,"Id":0,"pName":"哲如措"}},{"type":"Feature","id":248,"geometry":{"type":"Point","coordinates":[98.913748681000072,32.022681474000024,4354,null]},"properties":{"FID":248,"Id":0,"pName":"尕柯错玛"}},{"type":"Feature","id":249,"geometry":{"type":"Point","coordinates":[100.22111939500007,29.312596946000042,4557,null]},"properties":{"FID":249,"Id":0,"pName":"希措"}},{"type":"Feature","id":250,"geometry":{"type":"Point","coordinates":[99.757469214000082,31.101026069000056,4168,null]},"properties":{"FID":250,"Id":0,"pName":"拉龙措"}},{"type":"Feature","id":251,"geometry":{"type":"Point","coordinates":[99.563381829000036,30.32230891200004,4465,null]},"properties":{"FID":251,"Id":0,"pName":"措尼巴"}},{"type":"Feature","id":252,"geometry":{"type":"Point","coordinates":[99.556498102000035,30.498346194000078,4105,null]},"properties":{"FID":252,"Id":0,"pName":"措普"}},{"type":"Feature","id":253,"geometry":{"type":"Point","coordinates":[100.39365232700004,29.524979587000075,4410,null]},"properties":{"FID":253,"Id":0,"pName":"措然珠"}},{"type":"Feature","id":254,"geometry":{"type":"Point","coordinates":[99.563943701000085,30.176645284000074,4315,null]},"properties":{"FID":254,"Id":0,"pName":"措纳学措"}},{"type":"Feature","id":255,"geometry":{"type":"Point","coordinates":[100.38123437600007,29.470413102000066,4364,null]},"properties":{"FID":255,"Id":0,"pName":"擦曲措"}},{"type":"Feature","id":256,"geometry":{"type":"Point","coordinates":[99.119434780000063,31.83875762100007,3996,null]},"properties":{"FID":256,"Id":0,"pName":"新路海"}},{"type":"Feature","id":257,"geometry":{"type":"Point","coordinates":[101.86362671100005,30.152760327000067,3751,null]},"properties":{"FID":257,"Id":0,"pName":"木格措"}},{"type":"Feature","id":258,"geometry":{"type":"Point","coordinates":[99.792699002000063,31.01353513600003,4225,null]},"properties":{"FID":258,"Id":0,"pName":"相阳措"}},{"type":"Feature","id":259,"geometry":{"type":"Point","coordinates":[99.494911246000072,30.397152611000024,4594,null]},"properties":{"FID":259,"Id":0,"pName":"绒伊措"}},{"type":"Feature","id":260,"geometry":{"type":"Point","coordinates":[99.978148001000079,31.127463456000044,4345,null]},"properties":{"FID":260,"Id":0,"pName":"赞多措那玛"}},{"type":"Feature","id":261,"geometry":{"type":"Point","coordinates":[100.28067309000005,29.241385421000075,4467,null]},"properties":{"FID":261,"Id":0,"pName":"银措"}},{"type":"Feature","id":262,"geometry":{"type":"Point","coordinates":[99.28456404700006,30.023163404000059,4812,null]},"properties":{"FID":262,"Id":0,"pName":"亚莫措根"}},{"type":"Feature","id":263,"geometry":{"type":"Point","coordinates":[100.10225770200003,29.401811826000028,4390,null]},"properties":{"FID":263,"Id":0,"pName":"兴伊措"}},{"type":"Feature","id":264,"geometry":{"type":"Point","coordinates":[99.257250025000076,28.428641221000078,2056,null]},"properties":{"FID":264,"Id":0,"pName":"定曲"}},{"type":"Feature","id":265,"geometry":{"type":"Point","coordinates":[99.057452063000085,29.938572792000059,2454,null]},"properties":{"FID":265,"Id":0,"pName":"那曲"}},{"type":"Feature","id":266,"geometry":{"type":"Point","coordinates":[100.26514622800005,31.653801689000034,3475,null]},"properties":{"FID":266,"Id":0,"pName":"卡沙措"}},{"type":"Feature","id":267,"geometry":{"type":"Point","coordinates":[102.17493421300009,30.296297433000063,1563,null]},"properties":{"FID":267,"Id":0,"pName":"金汤河"}},{"type":"Feature","id":268,"geometry":{"type":"Point","coordinates":[101.00474533100004,30.379087514000048,2839,null]},"properties":{"FID":268,"Id":0,"pName":"白龙柯"}},{"type":"Feature","id":269,"geometry":{"type":"Point","coordinates":[101.28969057200004,30.393080009000073,4332,null]},"properties":{"FID":269,"Id":0,"pName":"分区河"}},{"type":"Feature","id":270,"geometry":{"type":"Point","coordinates":[101.03491039500005,30.111327097000071,2571,null]},"properties":{"FID":270,"Id":0,"pName":"苦乐沟"}},{"type":"Feature","id":271,"geometry":{"type":"Point","coordinates":[100.75416724900003,30.263088371000038,2833,null]},"properties":{"FID":271,"Id":0,"pName":"郎村隆巴沟"}},{"type":"Feature","id":272,"geometry":{"type":"Point","coordinates":[100.98015605100005,30.296005269000034,2827,null]},"properties":{"FID":272,"Id":0,"pName":"明贵柯"}},{"type":"Feature","id":273,"geometry":{"type":"Point","coordinates":[100.96627238300005,30.211172717000068,2842,null]},"properties":{"FID":273,"Id":0,"pName":"尼吉隆巴沟"}},{"type":"Feature","id":274,"geometry":{"type":"Point","coordinates":[101.03525983600008,30.21576659200008,2872,null]},"properties":{"FID":274,"Id":0,"pName":"特白沟"}},{"type":"Feature","id":275,"geometry":{"type":"Point","coordinates":[101.13253603600003,30.335241557000074,2869,null]},"properties":{"FID":275,"Id":0,"pName":"同达沟"}},{"type":"Feature","id":276,"geometry":{"type":"Point","coordinates":[101.00433477900003,30.111628235000069,2571,null]},"properties":{"FID":276,"Id":0,"pName":"弯地沟"}},{"type":"Feature","id":277,"geometry":{"type":"Point","coordinates":[101.00256909000007,30.345076739000035,2812,null]},"properties":{"FID":277,"Id":0,"pName":"吴麦柯"}},{"type":"Feature","id":278,"geometry":{"type":"Point","coordinates":[100.18993961000007,30.880231755000068,2970,null]},"properties":{"FID":278,"Id":0,"pName":"霍曲"}},{"type":"Feature","id":279,"geometry":{"type":"Point","coordinates":[101.04247816700007,29.288555360000032,2209,null]},"properties":{"FID":279,"Id":0,"pName":"马岩沟"}},{"type":"Feature","id":280,"geometry":{"type":"Point","coordinates":[101.00625310600009,30.20675476100007,2593,null]},"properties":{"FID":280,"Id":0,"pName":"鲜水河"}}]}